City_ID,City,Lat,Lng,Max Temp,Humidity,Cloudiness,Wind Speed,Country,Date
0,puerto natales,-51.7236,-72.4875,2.98,95,36,2.23,CL,1700181613
1,waitangi,-43.9535,-176.5597,13.58,97,100,9.72,NZ,1700181615
2,anadyr,64.75,177.4833,-17.72,70,0,4.0,RU,1700181652
3,iqaluit,63.7506,-68.5145,-1.15,86,75,12.35,CA,1700181606
4,kingston,17.997,-76.7936,25.53,91,75,5.14,JM,1700181585
5,iquique,-20.2208,-70.1431,19.02,79,61,1.52,CL,1700181797
6,georgetown,5.4112,100.3354,28.3,92,20,0.0,MY,1700181414
7,papatowai,-46.5619,169.4708,8.17,90,100,4.57,NZ,1700181604
8,adamstown,-25.066,-130.1015,20.95,85,100,3.63,PN,1700181603
9,saint-joseph,-21.3667,55.6167,22.21,90,89,4.95,RE,1700181799
10,toppenish,46.3774,-120.3087,8.61,41,20,1.92,US,1700181801
11,bethel,41.3712,-73.414,12.02,64,0,0.45,US,1700181613
12,ketou,7.3633,2.5998,23.78,90,19,0.9,BJ,1700181802
13,cestos city,5.46,-9.5828,25.93,85,6,2.25,LR,1700181802
14,mount isa,-20.7333,139.5,32.87,31,0,8.23,AU,1700181749
15,fang,19.9169,99.2145,19.31,97,100,1.29,TH,1700181803
16,edinburgh of the seven seas,-37.0676,-12.3116,13.96,73,100,8.14,SH,1700181602
17,bilibino,68.0546,166.4372,-21.12,100,100,0.12,RU,1700181612
18,grytviken,-54.2811,-36.5092,0.65,89,100,5.15,GS,1700181606
19,margaret river,-33.95,115.0667,19.53,46,0,3.32,AU,1700181608
20,itaueira,-7.6033,-43.0256,28.21,49,76,0.79,BR,1700181804
21,huaihua,27.5494,109.9592,12.04,80,14,0.58,CN,1700181805
22,newnham,-41.3833,147.1333,15.93,44,0,4.12,AU,1700181805
23,jingzhou,30.3503,112.1903,11.48,77,87,2.19,CN,1700181806
24,entebbe,0.0644,32.4469,20.18,94,100,1.03,UG,1700181806
25,tiksi,71.6872,128.8694,-23.28,99,100,3.59,RU,1700181622
26,blackmans bay,-43.0167,147.3167,18.74,50,6,1.79,AU,1700181606
27,swan hill,-35.3378,143.5544,21.86,24,0,4.87,AU,1700181807
28,isafjordur,66.0755,-23.124,1.72,74,100,1.3,IS,1700181608
29,kodiak,57.79,-152.4072,1.73,48,75,8.75,US,1700181695
30,kayenta,36.7278,-110.2546,13.0,47,30,2.74,US,1700181808
31,hithadhoo,-0.6,73.0833,27.32,81,24,6.28,MV,1700181681
32,fale old settlement,-9.3852,-171.2468,29.68,69,52,2.11,TK,1700181680
33,lanciano,42.2167,14.3882,16.97,62,52,2.49,IT,1700181809
34,port-aux-francais,-49.35,70.2167,4.28,94,100,11.12,TF,1700181608
35,invercargill,-46.4,168.35,9.45,87,100,3.13,NZ,1700181517
36,lebu,-37.6167,-73.65,11.87,97,100,8.33,CL,1700181609
37,stanley,54.868,-1.6985,4.87,94,100,3.16,GB,1700181614
38,ushuaia,-54.8,-68.3,7.81,66,100,1.54,AR,1700181660
39,hermanus,-34.4187,19.2345,17.64,84,100,1.67,ZA,1700181646
40,albany,42.6001,-73.9662,8.74,74,100,0.45,US,1700181658
41,holualoa,19.6228,-155.9522,25.91,80,40,5.14,US,1700181812
42,tazovsky,67.4667,78.7,-20.32,97,12,3.85,RU,1700181716
43,port mathurin,-19.6833,63.4167,25.08,79,100,7.09,MU,1700181632
44,bredasdorp,-34.5322,20.0403,16.43,85,100,1.35,ZA,1700181634
45,rio grande,-32.035,-52.0986,19.41,76,5,3.56,BR,1700181654
46,mount gambier,-37.8333,140.7667,16.2,51,73,3.11,AU,1700181617
47,brookings,44.3114,-96.7984,3.39,68,0,3.6,US,1700181729
48,urangan,-25.3,152.9,24.94,84,79,10.41,AU,1700181607
49,punta arenas,-53.15,-70.9167,7.06,87,75,3.09,CL,1700181637
50,wailua homesteads,22.0669,-159.378,29.24,70,40,6.17,US,1700181631
51,port elizabeth,-33.918,25.5701,19.16,94,20,2.57,ZA,1700181353
52,port saint john's,-31.6229,29.5448,20.4,79,100,1.71,ZA,1700181688
53,bonthe,7.5264,-12.505,26.44,86,0,1.64,SL,1700181816
54,yellowknife,62.456,-114.3525,-5.33,97,100,7.2,CA,1700181674
55,'ain benian,36.8028,2.9219,13.03,60,7,2.08,DZ,1700181817
56,ribeira grande,38.5167,-28.7,20.99,92,100,9.83,PT,1700181659
57,cabrobo,-8.5142,-39.31,33.05,28,94,3.09,BR,1700181817
58,shanhaiguan,39.9988,119.7564,0.24,28,8,4.56,CN,1700181818
59,karratha,-20.7377,116.8463,28.19,42,0,5.51,AU,1700181733
60,saipan,15.1355,145.701,30.39,79,40,7.72,MP,1700181721
61,newman,37.3138,-121.0208,19.6,76,100,1.01,US,1700181698
62,isangel,-19.55,169.2667,28.06,74,75,2.06,VU,1700181819
63,kayangel,8.0823,134.7173,28.89,80,100,3.47,PW,1700181819
64,thurgoona,-36.0451,146.9919,21.0,93,0,1.34,AU,1700181820
65,prainha,-1.8,-53.48,27.85,55,2,1.76,BR,1700181815
66,cabo san lucas,22.8909,-109.9124,30.61,62,0,3.6,MX,1700181393
67,east london,-33.0153,27.9116,18.94,82,100,2.13,ZA,1700181727
68,konarka,19.9,86.1167,22.22,69,84,4.56,IN,1700181815
69,amahai,-3.3333,128.9167,29.55,67,4,1.22,ID,1700181821
70,manismata,-2.4667,111.0333,28.5,77,99,1.38,ID,1700181822
71,lowestoft,52.4752,1.7516,7.5,94,100,2.86,GB,1700181822
72,ust-nera,64.5667,143.2,-25.12,96,100,3.25,RU,1700181649
73,mao,39.8885,4.2658,15.31,100,0,2.57,ES,1700181823
74,laojunmiao,39.8333,97.7333,0.1,16,0,1.14,CN,1700181823
75,bardsir,29.9227,56.5743,10.14,67,88,1.5,IR,1700181823
76,adler,43.43,39.92,8.09,93,20,3.0,RU,1700181824
77,ghadamis,30.1337,9.5007,17.81,40,0,3.31,LY,1700181777
78,puerto baquerizo moreno,-0.9,-89.6,23.12,91,99,5.16,EC,1700181647
79,colonia,50.9333,6.95,7.55,87,0,2.57,DE,1700181634
80,dalandzadgad,43.5708,104.425,-1.13,44,0,1.88,MN,1700181824
81,west island,-12.1568,96.8225,25.99,73,13,3.6,CC,1700181641
82,mogocha,53.7333,119.7667,-12.55,85,77,1.17,RU,1700181825
83,alice springs,-23.7,133.8833,20.75,94,100,2.06,AU,1700181825
84,kimberley,-28.7323,24.7623,17.83,72,100,3.09,ZA,1700181826
85,lensk,60.7253,114.9278,-2.64,90,100,5.26,RU,1700181826
86,sylacauga,33.1732,-86.2516,19.02,72,100,1.54,US,1700181826
87,san patricio,28.017,-97.5169,18.92,78,99,1.62,US,1700181676
88,lihue,21.9789,-159.3672,29.58,61,40,6.17,US,1700181604
89,flying fish cove,-10.4217,105.6791,25.82,88,75,3.6,CX,1700181718
90,sinabang,2.4803,96.3801,25.79,86,100,1.29,ID,1700181711
91,queenstown,-31.8976,26.8753,16.23,68,100,0.73,ZA,1700181610
92,daru,-9.0763,143.2092,29.3,61,9,4.35,PG,1700181782
93,touros,-5.1989,-35.4608,26.26,72,14,5.9,BR,1700181721
94,petropavlovka,50.6114,105.3196,-10.96,93,16,1.16,RU,1700181828
95,katsuura,35.1333,140.3,15.01,81,100,9.44,JP,1700181709
96,kapa'a,22.0752,-159.319,29.99,70,40,6.17,US,1700181617
97,bantogon,6.5333,124.0333,26.45,80,100,1.9,PH,1700181829
98,margate,51.3813,1.3862,7.61,91,100,2.68,GB,1700181628
99,taulaga,-11.0553,-171.0883,29.12,72,20,2.04,AS,1700181829
100,cockburn town,21.4612,-71.1419,28.18,76,100,10.31,TC,1700181764
101,pangody,65.85,74.4859,-17.97,92,100,3.6,RU,1700181830
102,dudinka,69.4058,86.1778,-22.33,99,83,4.78,RU,1700181824
103,punta del este,-34.9667,-54.95,17.15,67,0,1.54,UY,1700181831
104,kitee,62.1,30.15,-6.55,94,43,0.19,FI,1700181831
105,douentza,14.9951,-2.9517,26.88,29,98,1.61,ML,1700181831
106,bel ombre,-4.6167,55.4167,24.91,94,20,1.03,SC,1700181821
107,salinopolis,-0.6136,-47.3561,27.62,77,6,6.25,BR,1700181832
108,vernon,50.2581,-119.2691,2.64,79,15,1.54,CA,1700181761
109,imbituba,-28.24,-48.6703,23.25,99,100,1.11,BR,1700181625
110,chebba,35.2372,11.115,18.83,71,25,4.1,TN,1700181832
111,udachny,66.4167,112.4,-10.86,92,100,3.65,RU,1700181622
112,talnakh,69.4865,88.3972,-21.18,98,85,2.56,RU,1700181667
113,kirkwall,58.9848,-2.9587,5.54,81,100,1.03,GB,1700181833
114,chapaev,50.2,51.1667,5.53,87,100,2.45,KZ,1700181833
115,twon-brass,4.3151,6.2418,27.3,82,57,3.7,NG,1700181834
116,fougamou,-1.2154,10.5838,23.09,99,100,0.53,GA,1700181834
117,aasiaat,68.7098,-52.8699,-13.43,99,93,2.52,GL,1700181715
118,qaqortoq,60.7167,-46.0333,-7.45,74,19,3.42,GL,1700181627
119,satun,6.8333,100.0,25.0,85,99,1.63,TH,1700181835
120,sabang,5.8933,95.3214,27.4,78,100,1.5,ID,1700181655
121,lampang,18.3333,99.5,23.95,78,75,2.57,TH,1700181835
122,trincomalee,8.5711,81.2335,26.16,86,99,2.82,LK,1700181835
123,phan thiet,10.9333,108.1,26.47,79,93,4.21,VN,1700181836
124,tallinn,59.437,24.7535,-1.7,76,40,1.03,EE,1700181787
125,lhokseumawe,5.1801,97.1507,26.81,82,100,0.89,ID,1700181836
126,chernyshevsk,52.5243,117.0174,-12.47,78,94,1.84,RU,1700181836
127,jiuquan,39.7432,98.5174,-0.03,20,0,0.22,CN,1700181837
128,egilsstadir,65.2653,-14.3948,-5.05,93,40,1.03,IS,1700181837
129,olonkinbyen,70.9221,-8.7187,-2.56,78,100,2.85,SJ,1700181661
130,kelibia,36.8476,11.0939,17.14,88,0,1.03,TN,1700181837
131,college,64.8569,-147.8028,-5.31,84,75,0.0,US,1700181381
132,buka,40.8108,69.1986,12.83,19,100,0.4,UZ,1700181838
133,vyazemskiy,47.5378,134.7525,-1.42,96,100,5.02,RU,1700181838
134,zastron,-30.3023,27.084,15.39,62,100,2.24,ZA,1700181838
135,banjarmasin,-3.3244,114.591,27.08,74,97,1.18,ID,1700181839
136,natal,-5.795,-35.2094,27.12,74,40,4.12,BR,1700181440
137,victoria,22.2855,114.1577,18.47,40,6,5.36,HK,1700181601
138,guerrero negro,27.9769,-114.0611,21.0,87,100,7.27,MX,1700181741
139,la palma,33.8464,-118.0467,22.73,76,20,4.12,US,1700181840
140,walvis bay,-22.9575,14.5053,16.72,94,0,0.0,NA,1700181725
141,chibougamau,49.9168,-74.3659,2.79,70,100,8.23,CA,1700181840
142,hawaiian paradise park,19.5933,-154.9731,24.94,88,100,4.12,US,1700181672
143,jamestown,42.097,-79.2353,13.73,46,0,4.12,US,1700181319
144,hamilton,39.1834,-84.5333,16.35,70,0,2.06,US,1700181540
145,tashtagol,52.7657,87.8894,1.4,92,100,0.89,RU,1700181841
146,haiku-pauwela,20.9219,-156.3051,25.14,78,40,6.69,US,1700181719
147,vorgashor,67.5833,63.95,-18.04,98,100,3.44,RU,1700181629
148,alofi,-19.0595,-169.9187,27.94,89,75,3.6,NU,1700181826
149,severo-yeniseyskiy,60.3725,93.0408,-2.46,94,100,4.47,RU,1700181842
150,jaunpiebalga,57.1833,26.05,-3.47,79,14,1.87,LV,1700181843
151,petropavlovsk-kamchatsky,53.0452,158.6483,-4.67,80,20,7.15,RU,1700181612
152,cururupu,-1.8283,-44.8683,24.69,86,10,1.85,BR,1700181843
153,raichur,16.2,77.3667,21.27,58,79,3.0,IN,1700181560
154,cuatro cienegas de carranza,26.9833,-102.0833,20.85,60,5,1.22,MX,1700181844
155,leshan,29.5623,103.7639,10.92,75,100,0.36,CN,1700181845
156,kristiansund,63.1115,7.732,-0.64,64,25,2.57,NO,1700181768
157,ghat,24.9647,10.1728,17.16,43,0,1.64,LY,1700181630
158,luderitz,-26.6481,15.1594,17.98,74,66,1.71,NA,1700181758
159,new plymouth,-39.0667,174.0833,17.67,95,100,8.34,NZ,1700181846
160,kirakira,-10.4544,161.9205,28.58,75,16,4.43,SB,1700181661
161,sitka,57.0531,-135.33,7.94,87,100,2.06,US,1700181619
162,taltal,-25.4,-70.4833,17.84,67,100,1.84,CL,1700181847
163,avarua,-21.2078,-159.775,25.03,65,75,6.17,CK,1700181624
164,nadym,65.5333,72.5167,-17.02,90,100,3.82,RU,1700181719
165,akureyri,65.6835,-18.0878,-7.04,93,82,0.0,IS,1700181664
166,nar'yan-mar,67.6713,53.087,-13.27,97,88,2.24,RU,1700181713
167,san borja,-14.8167,-66.85,33.27,41,100,3.4,BO,1700181849
168,tutong,4.8,114.65,27.05,95,100,3.02,BN,1700181849
169,tapah road,4.1667,101.2,25.99,83,100,0.46,MY,1700181849
170,nhamunda,-2.1861,-56.7131,29.89,44,9,1.68,BR,1700181850
171,amursk,50.2261,136.8994,-6.68,83,100,4.65,RU,1700181850
172,tofol,5.3248,163.0078,28.88,79,75,1.54,FM,1700181851
173,corning,42.1428,-77.0547,9.85,82,0,0.0,US,1700181601
174,atafu village,-8.5421,-172.5159,29.62,73,14,3.29,TK,1700181638
175,shumikha,55.2261,63.2961,2.04,98,100,3.24,RU,1700181852
176,yumaguzino,52.9041,56.3933,4.45,92,100,4.06,RU,1700181852
177,selkirk,50.1436,-96.8845,-1.96,80,11,0.45,CA,1700181852
178,port lincoln,-34.7333,135.8667,16.71,63,13,6.75,AU,1700181691
179,paita,-5.0892,-81.1144,21.02,81,100,7.9,PE,1700181853
180,sotouboua,8.5667,0.9833,25.02,69,59,1.08,TG,1700181854
181,namibe,-15.1961,12.1522,23.97,72,100,3.22,AO,1700181636
182,susuman,62.7833,148.1667,-30.36,99,82,1.19,RU,1700181691
183,gadzhiyevo,69.2551,33.3362,-7.69,81,100,9.35,RU,1700181854
184,eenhana,-17.4667,16.3333,19.82,82,100,0.66,NA,1700181855
185,galesong,-5.3166,119.3661,30.01,68,100,0.37,ID,1700181855
186,ubari,26.5921,12.7805,16.35,50,0,1.58,LY,1700181761
187,yanykurgan,43.915,67.2481,12.26,28,100,5.21,KZ,1700181856
188,tazacorte,28.629,-17.9293,25.64,29,0,3.6,ES,1700181772
189,atvidaberg,58.2015,15.9977,-0.34,97,100,3.49,SE,1700181857
190,miri,4.4148,114.0089,25.08,94,20,0.0,MY,1700181809
191,kapuskasing,49.4169,-82.4331,11.05,62,100,9.26,CA,1700181658
192,orapa,-21.2833,25.3667,25.3,30,100,2.79,BW,1700181859
193,merano,46.6682,11.1595,11.99,83,26,1.4,IT,1700181859
194,st. john's,47.5649,-52.7093,0.54,80,100,2.57,CA,1700181624
195,lompoc,34.6391,-120.4579,20.94,69,20,6.17,US,1700181736
196,antofagasta,-23.65,-70.4,16.6,78,100,2.32,CL,1700181861
197,kuanda,56.3161,116.0806,-11.98,81,100,1.34,RU,1700181861
198,kish,26.5578,54.0194,21.15,88,100,3.09,IR,1700181861
199,dunedin,-45.8742,170.5036,9.33,78,100,4.47,NZ,1700181674
200,weno,7.4515,151.8468,27.97,89,100,1.54,FM,1700181714
201,ilulissat,69.2167,-51.1,-9.99,79,0,1.54,GL,1700181643
202,howrah,22.5892,88.3103,23.0,88,75,5.14,IN,1700181782
203,vilyuchinsk,52.9306,158.4028,-3.85,80,100,3.93,RU,1700181695
204,solnechnyy,50.7214,136.6319,-8.32,79,100,2.33,RU,1700181863
205,carnarvon,-24.8667,113.6333,26.18,60,0,3.77,AU,1700181610
206,pandan,14.0453,124.1694,27.2,84,100,8.34,PH,1700181864
207,arta,39.1606,20.9853,12.8,86,69,0.89,GR,1700181864
208,codrington,-38.2667,141.9667,16.07,53,93,5.44,AU,1700181766
209,prince rupert,54.3161,-130.3201,8.83,95,100,16.98,CA,1700181732
210,oruro,-17.9833,-67.15,13.31,52,49,5.68,BO,1700181865
211,khandyga,62.6667,135.6,-18.1,95,94,2.2,RU,1700181630
212,avanigadda,16.0215,80.9181,23.3,91,99,1.84,IN,1700181866
213,phitsanulok,16.9167,100.5,22.06,82,100,1.37,TH,1700181866
214,mugia,43.1041,-9.2179,11.76,79,75,1.43,ES,1700181867
215,ayacucho,-13.1583,-74.2239,16.98,69,85,1.55,PE,1700181762
216,turkmenbasy,40.0222,52.9552,16.43,94,100,3.09,TM,1700181867
217,springs,-26.25,28.4,17.97,85,100,0.72,ZA,1700181868
218,kindu,-2.95,25.95,21.39,100,100,1.21,CD,1700181762
219,cidreira,-30.1811,-50.2056,20.64,83,100,3.18,BR,1700181719
220,leava,-14.3,-178.1667,28.79,75,10,2.43,WF,1700181869
221,parasia,22.2,78.7667,14.68,57,0,2.4,IN,1700181869
222,klyuchi,52.2667,79.1667,5.4,76,100,0.82,RU,1700181649
223,kenai,60.5544,-151.2583,2.27,79,100,11.32,US,1700181681
224,parfino,57.9731,31.6481,-5.42,92,8,1.23,RU,1700181870
225,vila franca do campo,37.7167,-25.4333,21.6,99,100,9.13,PT,1700181716
226,kuta,-8.7233,115.1723,27.97,83,20,3.6,ID,1700181871
227,cornelio procopio,-23.1811,-50.6467,27.01,37,97,0.78,BR,1700181871
228,saint-paul,-21.0096,55.2707,23.06,94,71,2.18,RE,1700181872
229,badger,64.8,-147.5333,-5.36,89,75,0.0,US,1700181723
230,yuzhno-kurilsk,44.0306,145.8556,9.65,73,99,11.93,RU,1700181820
231,siddapur,14.3333,74.8833,19.41,73,100,2.33,IN,1700181873
232,whitehorse,60.7161,-135.0538,2.43,51,20,6.17,CA,1700181708
233,yemva,62.59,50.8594,-10.47,95,71,2.23,RU,1700181785
234,shakhtersk,48.0625,38.5167,6.5,83,88,5.49,UA,1700181874
235,znojmo,48.8555,16.0488,7.28,94,100,1.64,CZ,1700181875
236,leer,53.2316,7.461,3.85,95,100,2.01,DE,1700181875
237,tindouf,27.6711,-8.1474,17.25,25,0,2.57,DZ,1700181705
238,ginir,7.1333,40.7,14.05,88,71,1.49,ET,1700181876
239,bazarnyye mataki,54.8833,49.9333,-0.55,94,95,2.24,RU,1700181876
240,vilhena,-12.7406,-60.1458,26.74,37,99,1.73,BR,1700181877
241,cozumel,20.5083,-86.9458,27.19,79,20,5.14,MX,1700181877
242,bardai,11.65,7.2333,21.55,56,86,4.19,NG,1700181877
243,longyearbyen,78.2186,15.6401,-12.09,72,75,5.14,SJ,1700181616
244,tumkur,13.3422,77.1017,19.67,77,93,2.03,IN,1700181878
245,recani,31.2846,-4.2688,17.28,25,1,1.34,MA,1700181879
246,albertina,-22.2008,-46.6158,23.9,47,32,1.82,BR,1700181879
247,shenjiamen,29.9576,122.298,12.54,50,1,10.72,CN,1700181879
248,naze,28.3667,129.4833,18.51,62,100,8.45,JP,1700181880
249,labrador city,52.9463,-66.9114,-5.05,86,75,3.09,CA,1700181719
250,new norfolk,-42.7826,147.0587,19.95,49,21,4.09,AU,1700181734
251,pacific grove,36.6177,-121.9166,19.19,78,40,5.81,US,1700181881
252,nikel,69.4128,30.222,-7.9,87,100,4.77,RU,1700181881
253,afua,-0.1567,-50.3867,25.99,79,3,2.65,BR,1700181881
254,okhotsk,59.3833,143.3,-16.44,82,2,5.57,RU,1700181618
255,bikin,46.8161,134.26,2.13,98,100,3.31,RU,1700181882
256,verkhnevilyuysk,63.4453,120.3167,-5.44,92,100,4.18,RU,1700181882
257,coyhaique,-45.5752,-72.0662,8.34,87,100,2.06,CL,1700181882
258,aykhal,66.0,111.5,-8.92,93,100,6.24,RU,1700181743
259,parun,35.4207,70.9221,0.86,39,66,3.21,AF,1700181883
260,broken hill,-31.95,141.4333,21.72,26,0,5.64,AU,1700181883
261,iskateley,67.6803,53.1512,-13.32,97,84,2.24,RU,1700181643
262,emerald,-23.5333,148.1667,35.55,4,11,4.05,AU,1700181778
263,musoma,-1.5,33.8,19.39,83,21,2.68,TZ,1700181884
264,nora,59.5193,15.0398,-1.56,85,22,1.72,SE,1700181884
265,najafabad,32.6344,51.3668,5.3,61,1,2.73,IR,1700181884
266,eureka,40.8021,-124.1637,18.34,86,4,2.4,US,1700181884
267,seven pagodas,12.6264,80.1722,26.14,87,77,4.56,IN,1700181885
268,giyani,-23.3025,30.7187,21.03,55,28,1.05,ZA,1700181885
269,fada,9.5667,8.3,22.98,37,98,3.72,NG,1700181885
270,twin falls,42.3505,-114.6445,10.19,46,0,3.6,US,1700181885
271,szczebrzeszyn,50.695,22.9795,2.56,84,100,4.57,PL,1700181886
272,puerto deseado,-47.7503,-65.8938,11.42,72,100,7.3,AR,1700181626
273,pimentel,-6.8367,-79.9342,20.16,83,0,9.26,PE,1700181886
274,tinajo,29.0788,-13.7081,20.49,49,0,4.63,ES,1700181887
275,kailua-kona,19.6406,-155.9956,27.98,79,40,5.14,US,1700181675
276,remire-montjoly,4.9167,-52.2667,28.02,83,40,2.57,GF,1700181694
277,horta,38.5333,-28.6333,20.57,92,100,9.83,PT,1700181663
278,korsakov,46.6328,142.7813,7.91,77,100,7.89,RU,1700181888
279,puerto ayora,-0.7393,-90.3518,23.08,97,99,2.68,EC,1700181602
280,fortuna,40.5982,-124.1573,18.19,88,0,3.6,US,1700181449
281,juan griego,11.0817,-63.9655,26.94,87,66,5.19,VE,1700181724
282,tura,25.5198,90.2201,18.97,93,100,2.01,IN,1700181609
283,rifle,39.5347,-107.7831,8.39,88,75,3.09,US,1700181667
284,kavaratti,10.5669,72.642,28.25,76,99,3.63,IN,1700181636
285,thunder bay,48.4001,-89.3168,4.99,56,100,9.77,CA,1700181729
286,garden city,42.3256,-83.331,15.64,55,75,5.14,US,1700181762
287,kudahuvadhoo,2.6708,72.8944,27.96,75,72,2.68,MV,1700181890
288,saurimo,-9.6608,20.3916,18.41,91,100,1.09,AO,1700181890
289,klaksvik,62.2266,-6.589,3.51,59,80,5.28,FO,1700181890
290,kone,-21.0595,164.8658,29.99,48,16,1.03,NC,1700181622
291,togur,58.3631,82.8265,1.75,98,100,5.81,RU,1700181891
292,yangshuo,24.7808,110.4897,11.93,70,7,1.32,CN,1700181891
293,coos bay,43.3665,-124.2179,14.57,88,40,2.57,US,1700181891
294,suva,-18.1416,178.4415,29.71,74,40,3.09,FJ,1700181891
295,siracusa,37.0881,15.2792,17.77,78,2,2.18,IT,1700181892
296,callao,-12.0667,-77.15,23.18,77,100,5.66,PE,1700181683
297,auki,-8.7676,160.7034,27.97,79,36,1.1,SB,1700181893
298,city of balikpapan,-1.242,116.8942,27.97,83,20,1.03,ID,1700181893
299,oiso,35.3031,139.3028,13.44,85,100,1.93,JP,1700181893
300,letterkenny,54.95,-7.7333,4.48,94,100,1.65,IE,1700181851
301,constantia,44.1833,28.65,6.5,60,100,1.12,RO,1700181473
302,lamu,-2.2717,40.902,25.12,87,12,2.3,KE,1700181894
303,yulinshi,38.2906,109.7494,1.06,37,0,3.09,CN,1700181894
304,sanniquellie,7.3622,-8.7061,20.81,87,20,0.94,LR,1700181895
305,uliastay,47.7417,96.8444,-8.8,58,0,3.42,MN,1700181895
306,topeka,39.0483,-95.678,16.43,71,0,3.6,US,1700181639
307,nago,26.5881,127.9761,21.47,52,100,8.3,JP,1700181895
308,ziro,27.6333,93.8333,6.41,55,100,1.19,IN,1700181896
309,nova sintra,14.8667,-24.7167,23.73,69,93,2.4,CV,1700181629
310,helston,50.1032,-5.2705,11.27,77,40,4.12,GB,1700181896
311,saint-francois,46.4154,3.9054,9.8,72,100,6.69,FR,1700181896
312,suances,43.4334,-4.0434,14.43,95,75,3.09,ES,1700181897
313,nyons,44.3333,5.1667,1.86,83,11,3.48,FR,1700181897
314,abasolo,20.45,-101.5167,19.21,32,0,0.52,MX,1700181897
315,jayapura,-2.5333,140.7,28.66,71,83,1.82,ID,1700181565
316,xining,36.6167,101.7667,-0.78,26,0,0.95,CN,1700181656
317,utrik,11.2278,169.8474,28.2,78,15,7.43,MH,1700181798
318,sokcho,38.2083,128.5911,5.34,38,0,6.69,KR,1700181898
319,bamboo flat,11.7,92.7167,28.05,83,40,2.06,IN,1700181706
320,huilong,31.8111,121.655,10.41,52,0,8.48,CN,1700181729
321,preobrazheniye,42.9019,133.9064,5.64,88,63,3.61,RU,1700181651
322,nouadhibou,20.931,-17.0347,22.99,56,0,6.17,MR,1700181687
323,masterton,-40.9597,175.6575,15.49,95,100,4.96,NZ,1700181899
324,tezu,27.9167,96.1667,20.15,41,100,1.08,IN,1700181900
325,rakops,-21.0167,24.3333,25.33,54,100,3.07,BW,1700181900
326,tabou,4.423,-7.3528,25.62,86,9,1.96,CI,1700181644
327,al hamul,31.3115,31.1477,20.78,81,84,1.75,EG,1700181900
328,necochea,-38.5473,-58.7368,11.56,64,22,6.8,AR,1700181779
329,nuuk,64.1835,-51.7216,-1.66,80,75,1.03,GL,1700181697
330,huarmey,-10.0681,-78.1522,20.17,86,96,4.75,PE,1700181703
331,caleta de carquin,-11.0925,-77.6267,19.79,85,100,5.08,PE,1700181611
332,narvik,68.4384,17.4272,1.0,98,100,2.03,NO,1700181902
333,dabeiba,7.0017,-76.2672,24.02,97,99,0.65,CO,1700181903
334,port shepstone,-30.7414,30.455,21.55,81,100,4.11,ZA,1700181903
335,yatou,37.15,122.3833,4.23,64,58,7.52,CN,1700181904
336,andalgala,-27.5819,-66.3165,18.29,64,32,2.91,AR,1700181759
337,lyubashivka,47.8372,30.2598,1.36,77,3,3.22,UA,1700181905
338,lazaro cardenas,17.9583,-102.2,27.71,81,11,1.9,MX,1700181905
339,manokwari,-0.8667,134.0833,28.75,74,7,2.42,ID,1700181906
340,ola,59.5833,151.2833,-13.56,71,14,1.73,RU,1700181620
341,richards bay,-28.783,32.0377,20.85,83,100,5.18,ZA,1700181675
342,afaahiti,-17.75,-149.2833,27.93,81,100,10.6,PF,1700181675
343,three rivers,41.9439,-85.6325,15.32,63,100,4.63,US,1700181907
344,smithers,54.7804,-127.1743,2.18,93,100,2.06,CA,1700181671
345,susaki,33.3667,133.2833,15.04,58,5,5.84,JP,1700181908
346,fort mcmurray,56.7268,-111.381,-3.23,80,100,1.54,CA,1700181490
347,targuist,34.9377,-4.3186,13.97,45,12,0.52,MA,1700181909
348,xiaoweizhai,26.1903,107.5125,10.64,63,77,1.63,CN,1700181910
349,gradignan,44.7726,-0.6139,12.14,91,75,2.06,FR,1700181910
350,port moresby,-9.4431,147.1797,29.68,66,40,2.57,PG,1700181893
351,opuwo,-18.0607,13.84,21.06,79,46,1.02,NA,1700181776
352,bondo,3.8146,23.6866,20.96,100,100,1.22,CD,1700181911
353,paijan,-7.7333,-79.3022,18.57,81,100,4.63,PE,1700181912
354,namdrik,5.5994,168.1028,28.39,78,94,5.5,MH,1700181912
355,mili,6.0815,171.735,28.72,76,100,6.45,MH,1700181672
356,chittur,10.7,76.75,26.75,99,17,1.46,IN,1700181913
357,minas de marcona,-15.2119,-75.1103,15.16,84,100,6.47,PE,1700181913
358,priozersk,61.0393,30.1291,-5.51,85,26,1.6,RU,1700181914
359,fort bragg,35.139,-79.006,16.75,78,0,0.0,US,1700181767
360,nevel',56.0209,29.9284,-3.76,83,8,1.68,RU,1700181915
361,ageyevo,54.1588,36.4693,0.5,90,100,3.34,RU,1700181915
362,ercis,39.0287,43.3586,7.39,90,100,4.85,TR,1700181916
363,moron,-34.6534,-58.6198,22.86,45,0,0.8,AR,1700181916
364,iguape,-24.7081,-47.5553,23.43,93,92,3.12,BR,1700181916
365,salalah,17.0151,54.0924,26.05,83,40,1.03,OM,1700181917
366,hobyo,5.3505,48.5268,27.62,78,11,2.99,SO,1700181917
367,greymouth,-42.4667,171.2,13.75,96,100,5.48,NZ,1700181616
368,elesbao veloso,-6.2019,-42.1403,27.97,44,58,0.98,BR,1700181918
369,lebowakgomo,-24.2,29.5,17.5,59,100,1.47,ZA,1700181918
370,apodi,-5.6642,-37.7989,27.32,61,49,6.3,BR,1700181919
371,carbonear,47.7332,-53.2148,1.18,81,92,2.68,CA,1700181919
372,saldanha,-33.0117,17.9442,15.03,92,100,2.81,ZA,1700181718
373,ambon,-3.6954,128.1814,31.08,70,20,2.06,ID,1700181920
374,upper dir,35.2058,71.8756,9.84,27,66,3.94,PK,1700181920
375,kitimat,54.0524,-128.6534,4.21,63,100,3.58,CA,1700181921
376,kerikeri,-35.2268,173.9474,22.48,57,100,5.29,NZ,1700181645
377,novo aripuana,-5.1206,-60.3797,31.3,36,77,1.22,BR,1700181706
378,kilindoni,-7.9139,39.6668,26.5,81,100,6.78,TZ,1700181922
379,raduzhny,62.0961,77.475,-2.94,97,99,3.56,RU,1700181922
380,hammerfest,70.6634,23.6821,0.25,69,75,9.26,NO,1700181923
381,lucapa,-8.4192,20.7447,18.89,97,100,0.3,AO,1700181923
382,tromso,69.6496,18.957,1.01,64,75,6.69,NO,1700181923
383,ust'-ilimsk,58.0006,102.6619,0.8,81,100,5.36,RU,1700181924
384,santa cruz,-17.8,-63.1667,31.7,51,20,6.17,BO,1700181638
385,sinton,28.0367,-97.5092,18.93,78,98,1.72,US,1700181924
386,la passe,45.5549,-0.8967,11.13,79,98,4.38,FR,1700181925
387,navia,43.5354,-6.7194,13.25,93,100,0.63,ES,1700181925
388,fredensborg,55.9756,12.4031,4.8,91,99,3.13,DK,1700181926
389,guatire,10.4762,-66.5427,23.64,98,100,1.49,VE,1700181926
390,kill devil hills,36.0307,-75.676,16.1,89,0,3.09,US,1700181595
391,palikir - national government center,6.9248,158.1611,30.41,79,100,3.09,FM,1700181648
392,bikenibeu village,1.3673,173.1241,28.91,76,100,4.94,KI,1700181642
393,cambria,35.5641,-121.0808,22.41,85,1,1.79,US,1700181927
394,kaa-khem,51.6833,94.7333,-16.44,93,100,0.66,RU,1700181928
395,pisco,-13.7,-76.2167,20.01,88,0,9.77,PE,1700181731
396,kavieng,-2.5744,150.7967,28.79,72,11,1.67,PG,1700181639
397,betio village,1.358,172.9211,28.75,76,100,4.52,KI,1700181929
398,alesund,62.4723,6.1549,3.75,73,20,4.12,NO,1700181929
399,malpe,13.35,74.7167,26.61,83,82,1.67,IN,1700181929
400,mata-utu,-13.2816,-176.1745,29.34,73,58,3.04,WF,1700181764
401,cali,3.4372,-76.5225,26.0,61,75,3.6,CO,1700181878
402,ta`u,-14.2336,-169.5144,28.23,80,100,4.63,AS,1700181633
403,copiapo,-27.3667,-70.3333,12.83,59,100,1.8,CL,1700181682
404,lloydminster,53.2835,-110.0016,1.12,60,100,4.12,CA,1700181931
405,huanggang,23.677,116.9996,13.94,58,35,4.52,CN,1700181931
406,sydney mines,46.2367,-60.2177,6.26,78,75,4.63,CA,1700181931
407,brigham city,41.5102,-112.0155,10.7,79,64,2.24,US,1700181702
408,kununurra,-15.7667,128.7333,32.99,58,10,1.03,AU,1700181513
409,puerto lempira,15.2667,-83.7667,27.08,83,20,0.0,HN,1700181932
410,geraldton,-28.7667,114.6,26.23,34,0,12.86,AU,1700181645
411,at-bashi,41.1702,75.8106,-4.73,53,12,1.61,KG,1700181933
412,esmeraldas,-19.7625,-44.3139,26.52,61,100,1.82,BR,1700181934
413,colombo,6.9319,79.8478,25.97,87,85,1.42,LK,1700181935
414,la sarre,48.8002,-79.1996,5.53,69,100,9.46,CA,1700181935
415,wanning,18.8003,110.3967,19.82,72,22,6.57,CN,1700181712
416,juneau,58.3019,-134.4197,4.0,97,75,3.09,US,1700181571
417,djamaa,33.5339,5.9931,16.32,42,16,1.76,DZ,1700181936
418,gusinje,42.5638,19.8333,5.42,74,100,2.71,ME,1700181936
419,mankachar,25.5333,89.8667,21.39,85,100,3.58,IN,1700181937
420,evinayong,1.4368,10.5512,19.93,99,94,0.2,GQ,1700181937
421,candido mendes,-1.4467,-45.7167,26.29,79,30,2.94,BR,1700181937
422,molchanovo,57.5817,83.7692,0.12,91,100,2.84,RU,1700181938
423,zaozersk,69.4005,32.4476,-7.86,80,100,6.91,RU,1700181938
424,alta,69.9689,23.2717,0.59,73,40,5.14,NO,1700181712
425,zhaqsy,51.9083,67.3133,1.13,93,100,2.48,KZ,1700181939
426,hadibu,12.65,54.0333,26.65,86,23,3.79,YE,1700181640
427,tomohon,1.3346,124.8392,26.52,60,87,1.55,ID,1700181822
428,kanigiri,15.4,79.5167,22.76,80,100,1.48,IN,1700181940
429,enewetak,11.3474,162.3373,28.3,83,7,10.26,MH,1700181682
430,tudor vladimirescu,45.5667,27.65,7.45,68,100,2.02,RO,1700181941
431,maiduguri,11.8464,13.1603,26.08,32,100,5.28,NG,1700181941
432,dayrut,27.556,30.8076,18.96,57,73,3.17,EG,1700181941
433,sanctuary point,-35.1114,150.629,21.66,49,2,5.68,AU,1700181942
434,riohacha,11.5444,-72.9072,28.06,83,75,2.57,CO,1700181808
435,niigata,37.9022,139.0236,12.97,94,100,0.51,JP,1700181942
436,altay,47.8667,88.1167,-2.58,57,73,3.19,CN,1700181942
437,sakata,38.9167,139.855,12.1,94,75,4.12,JP,1700181943
438,kondratovo,57.9804,56.1066,0.16,92,75,5.0,RU,1700181943
439,apple valley,34.5008,-117.1859,16.61,72,1,3.55,US,1700181721
440,ancud,-41.8697,-73.8203,10.35,92,98,9.59,CL,1700181791
441,mareeba,-17.0,145.4333,31.91,34,5,2.55,AU,1700181944
442,zhanga buqtyrma,49.6295,83.5248,-1.59,70,100,1.56,KZ,1700181944
443,terenozek,45.05,64.9833,11.67,35,100,3.56,KZ,1700181944
444,ambalangoda,6.2355,80.0538,25.93,86,29,0.68,LK,1700181944
445,peace river,56.2501,-117.286,3.17,64,75,4.12,CA,1700181945
446,hirara,24.8,125.2833,19.92,59,75,9.77,JP,1700181709
447,verdal,63.7933,11.4817,-8.98,73,13,1.47,NO,1700181945
448,thompson,55.7435,-97.8558,-6.91,79,100,4.12,CA,1700181648
449,dossor,47.5272,52.9811,8.06,70,100,3.95,KZ,1700181946
450,cartagena,10.3997,-75.5144,28.79,74,0,2.57,CO,1700181412
451,shubarshi,48.5872,57.1869,6.48,70,100,3.08,KZ,1700181946
452,vadso,70.0744,29.7487,-2.91,80,20,5.66,NO,1700181640
453,xuddur,4.1213,43.8894,23.29,88,94,3.28,SO,1700181947
454,nemuro,43.3236,145.575,10.23,76,99,11.45,JP,1700181772
455,dakhla,23.6848,-15.958,20.63,76,0,6.76,EH,1700181947
456,jabor,5.921,169.6434,28.37,79,95,6.57,MH,1700181948
457,ciudad bolivar,8.1222,-63.5497,27.14,80,81,4.41,VE,1700181916
458,arraial do cabo,-22.9661,-42.0278,24.07,86,100,8.33,BR,1700181571
459,ngorongoro,-3.2397,35.4875,11.89,96,96,2.24,TZ,1700181948
460,la'ie,21.6477,-157.9253,27.98,65,100,2.24,US,1700181816
461,miyoshi,35.0833,137.0667,18.68,75,100,4.47,JP,1700181949
462,chonchi,-42.6128,-73.8092,9.56,97,100,4.94,CL,1700181634
463,sumbe,-11.2061,13.8437,25.21,92,78,3.88,AO,1700181949
464,jaciara,-15.9653,-54.9683,28.35,38,73,1.84,BR,1700181949
465,pama,11.2497,0.7075,28.13,37,74,1.67,BF,1700181950
466,winston,28.0317,-82.0148,21.74,95,100,3.09,US,1700181950
467,fort st. john,56.2499,-120.8529,2.94,65,75,10.8,CA,1700181690
468,riyadh,24.6877,46.7219,18.08,72,81,3.88,SA,1700181838
469,moroto,2.5345,34.6666,20.04,83,100,3.05,UG,1700181951
470,shanwei,22.782,115.3475,16.2,44,5,6.02,CN,1700181951
471,namsos,64.4662,11.4957,-3.97,79,65,5.14,NO,1700181952
472,heunghae,36.1125,129.3522,5.89,42,94,7.46,KR,1700181952
473,petawawa,45.9001,-77.3328,6.77,63,75,4.12,CA,1700181952
474,enshi,30.3,109.4833,8.87,70,100,0.07,CN,1700181952
475,fisterra,42.9049,-9.2629,11.68,76,73,1.62,ES,1700181953
476,corbin,36.9487,-84.0969,17.21,47,0,0.0,US,1700181953
477,dasoguz,41.8363,59.9666,9.97,66,100,2.06,TM,1700181953
478,uttarkashi,30.7333,78.45,12.59,26,92,2.7,IN,1700181954
479,arnprior,45.4334,-76.3494,8.7,81,100,3.06,CA,1700181749
480,kursk,51.7303,36.1939,4.55,80,100,4.02,RU,1700181954
481,morki,56.4303,48.9947,-2.13,85,100,2.91,RU,1700181954
482,siocon,7.7061,122.1353,28.86,73,64,2.08,PH,1700181954
483,burang,30.25,81.1667,-4.64,35,0,0.89,CN,1700181955
484,yelizovo,53.1873,158.3805,-3.92,68,20,2.0,RU,1700181955
485,belfast,54.5833,-5.9333,5.21,94,75,2.57,GB,1700181738
486,diourbel,14.6628,-16.3925,22.99,56,0,0.0,SN,1700181956
487,kidal,18.4411,1.4078,23.08,20,0,5.06,ML,1700181956
488,tramandai,-29.9847,-50.1336,20.59,84,100,3.0,BR,1700181956
489,khovd,48.0056,91.6419,-6.23,69,6,1.26,MN,1700181703
490,freeport,40.6576,-73.5832,15.2,88,0,4.63,US,1700181780
491,vera cruz,-12.6333,-41.0333,24.48,72,74,2.8,BR,1700181957
492,chui,-33.6971,-53.4616,13.97,79,0,2.44,UY,1700181957
493,conception bay south,47.4999,-52.9981,0.41,82,100,3.02,CA,1700181825
494,kruisfontein,-34.0033,24.7314,15.59,89,17,2.1,ZA,1700181619
495,nova vicosa,-17.8919,-39.3719,24.95,86,5,6.74,BR,1700181763
496,mentougou,39.9392,116.0917,2.52,21,0,4.5,CN,1700181958
497,yallahs,17.8748,-76.5624,25.85,94,100,4.85,JM,1700181959
498,lima,-12.0432,-77.0282,22.17,76,100,5.66,PE,1700181596
499,guigang,23.0964,109.6092,13.73,65,30,2.46,CN,1700181959
500,tsiombe,-25.3,45.4833,20.04,76,20,6.31,MG,1700181661
501,saudarkrokur,65.7461,-19.6394,0.82,82,100,3.64,IS,1700181959
502,el nido,11.1858,119.3956,28.82,72,100,3.73,PH,1700181719
503,pathein,16.7833,94.7333,23.33,92,100,4.58,MM,1700181837
504,amuntai,-2.4177,115.2494,27.79,82,89,0.22,ID,1700181960
505,nasrullahganj,22.6833,77.2667,15.81,63,0,2.92,IN,1700181961
506,almansa,38.8692,-1.0971,12.66,84,59,2.8,ES,1700181961
507,woodlake,37.4211,-77.6793,13.01,83,0,0.0,US,1700181961
508,sivas,39.7916,37.0019,3.35,93,75,3.09,TR,1700181961
509,chelak,39.9203,66.8611,13.42,17,100,2.97,UZ,1700181962
510,strezhevoy,60.7333,77.5889,1.65,99,100,7.15,RU,1700181712
511,black point,-34.6187,137.8972,16.08,58,0,4.51,AU,1700181963
512,westport,41.1415,-73.3579,13.3,79,0,4.12,US,1700181963
513,uturoa,-16.7333,-151.4333,26.0,74,99,10.68,PF,1700181964
514,grand falls-windsor,48.9332,-55.6649,-0.28,92,100,1.5,CA,1700181713
515,kandalaksha,67.162,32.4123,-13.94,94,49,0.45,RU,1700181965
516,inirida,3.8653,-67.9239,25.09,91,58,1.49,CO,1700181965
517,bodaybo,57.8506,114.1933,-7.3,92,100,1.77,RU,1700181965
518,kuhdasht,33.535,47.6061,9.84,88,2,1.14,IR,1700181966
519,shalqar,47.8333,59.6,6.77,73,100,4.19,KZ,1700181966
520,sanger,36.708,-119.556,23.84,50,0,2.06,US,1700181887
521,coquimbo,-29.9533,-71.3436,13.85,82,40,4.12,CL,1700181626
522,port hedland,-20.3167,118.5667,30.03,54,0,5.14,AU,1700181637
523,quellon,-43.1167,-73.6167,9.17,90,97,7.35,CL,1700181968
524,dolores,-36.3132,-57.6792,12.98,54,0,2.11,AR,1700181968
525,san antonio de pale,-1.4014,5.6325,26.71,83,77,5.42,GQ,1700181969
526,keflavik,64.0049,-22.5624,4.95,81,0,4.63,IS,1700181682
527,dubbo,-32.25,148.6167,24.07,29,0,3.09,AU,1700181970
528,conceicao da barra,-18.5933,-39.7322,24.66,84,0,5.4,BR,1700181970
529,kasongo-lunda,-6.4667,16.8167,20.59,96,100,0.74,CD,1700181971
530,zeya,53.75,127.2667,-7.51,71,7,0.65,RU,1700181819
531,sao gabriel da cachoeira,-0.1303,-67.0892,26.91,73,95,0.87,BR,1700181971
532,mar del plata,-38.0023,-57.5575,15.61,77,0,12.07,AR,1700181779
533,zabol,32.25,67.25,9.3,27,100,2.7,AF,1700181972
534,nsanje,-16.92,35.262,19.06,79,0,1.19,MW,1700181973
535,dauphin,51.1494,-100.0502,-0.92,64,0,5.66,CA,1700181746
536,hilo,19.7297,-155.09,26.27,82,100,4.12,US,1700181974
537,flekkefjord,58.2971,6.6607,-0.03,82,17,3.42,NO,1700181975
538,'ali sabieh,11.1558,42.7125,22.02,93,100,4.08,DJ,1700181975
539,ghanzi,-21.5667,21.7833,22.8,58,100,3.34,BW,1700181698
540,el granada,37.5027,-122.4694,19.65,78,75,2.57,US,1700181976
541,puerto armuelles,8.2833,-82.8667,27.87,84,100,3.13,PA,1700181976
542,diamantino,-14.4086,-56.4461,28.22,41,24,2.42,BR,1700181872
543,jardim,-21.4803,-56.1381,32.7,26,71,3.83,BR,1700181977
544,puerto ayacucho,5.6639,-67.6236,26.01,85,58,1.8,VE,1700181977
545,tolanaro,-25.0319,46.9987,21.04,83,40,6.17,MG,1700181645
546,columbia,34.0007,-81.0348,17.82,78,75,0.0,US,1700181646
547,tidjikja,18.5564,-11.4271,23.19,16,0,5.62,MR,1700181768
548,hailun,47.45,126.9333,-7.03,92,98,1.58,CN,1700181978
549,princeville,45.7668,-61.2985,6.54,78,100,6.17,CA,1700181979
550,rajaldesar,28.0333,74.4667,17.2,37,17,3.11,IN,1700181980
551,luanda,-8.8368,13.2343,27.0,83,75,4.12,AO,1700181596
552,freetown,8.484,-13.2299,26.46,85,0,1.59,SL,1700181980
553,oamaru,-45.0784,170.9801,9.1,91,100,8.99,NZ,1700181692
554,banda aceh,5.5577,95.3222,27.08,81,100,1.65,ID,1700181981
555,barra dos coqueiros,-10.9089,-37.0386,27.01,78,20,5.66,BR,1700181981
556,mossel bay,-34.1831,22.146,14.96,75,28,1.59,ZA,1700181982
557,hasilpur,29.7122,72.5553,16.63,30,19,2.76,PK,1700181982
558,calvinia,-31.4707,19.776,19.53,40,100,1.31,ZA,1700181983
559,geneseo,42.7959,-77.8169,11.95,69,65,3.53,US,1700181983
560,imaricho-ko,33.2667,129.8833,10.87,78,100,6.92,JP,1700181983
561,port alfred,-33.5906,26.891,19.54,93,92,2.96,ZA,1700181662
562,markovo,57.3206,107.0881,-4.06,83,100,3.08,RU,1700181984
563,federal,-30.9547,-58.7833,18.68,72,100,3.27,AR,1700181984
564,arkhangel'sk,64.5401,40.5433,-5.49,84,49,4.31,RU,1700181614
565,polyarnyy,69.1989,33.4478,-7.55,82,100,8.38,RU,1700181818
566,sibut,5.718,19.0739,20.82,92,100,0.26,CF,1700181986
567,tobruk,32.0836,23.9764,20.68,79,2,3.93,LY,1700181986
568,malaga,36.7202,-4.4203,17.06,85,75,1.54,ES,1700181842
569,vanino,49.0869,140.2543,-1.15,84,97,0.66,RU,1700181987
570,sao jose da coroa grande,-8.8978,-35.1478,25.47,79,37,5.11,BR,1700181988
571,kapiri mposhi,-13.9652,28.6809,17.87,53,77,2.64,ZM,1700181988
572,monrovia,6.3005,-10.7969,24.87,83,0,2.41,LR,1700181988
573,santa terezinha,-29.9002,-50.0904,20.65,84,100,2.72,BR,1700181989
574,jianguang,28.1938,115.7836,11.02,58,90,1.97,CN,1700181989
575,bahawalnagar,30.5508,73.3908,16.44,42,50,1.34,PK,1700181846
576,hastings,50.8552,0.5729,7.66,54,30,4.37,GB,1700181991
577,igarka,67.4667,86.5833,-25.85,100,48,2.84,RU,1700181991
578,la gi,10.6667,107.7833,26.24,81,100,4.35,VN,1700181992
579,toliara,-23.35,43.6667,24.16,62,0,6.22,MG,1700181722
580,paciran,-6.8767,112.3761,29.39,68,71,2.48,ID,1700181992
581,saint-leonard,50.6906,1.6254,8.95,87,100,4.63,FR,1700181993
582,palangkaraya,-2.2,113.8333,28.41,79,72,0.37,ID,1700181993
